City_ID,City,Lat,Lng,Max Temp,Humidity,Cloudiness,Wind Speed,Country,Description,Date
0,Shelburne,44.0787,-80.2041,68.23,47,72,2.93,CA,broken clouds,2022-06-13 16:29:56
1,Coihaique,-45.5752,-72.0662,43.41,87,75,3.44,CL,broken clouds,2022-06-13 16:29:56
2,Punta Arenas,-53.15,-70.9167,46.51,87,0,10.36,CL,clear sky,2022-06-13 16:29:57
3,Codrington,-38.2667,141.9667,44.55,81,94,8.75,AU,overcast clouds,2022-06-13 16:29:57
4,Hofn,64.2539,-15.2082,51.82,93,100,6.91,IS,light intensity drizzle,2022-06-13 16:29:57
5,Dingle,10.9995,122.6711,77.85,87,100,3.96,PH,heavy intensity rain,2022-06-13 16:29:57
6,San Mateo Del Mar,16.2,-95.0,80.67,76,100,4.59,MX,overcast clouds,2022-06-13 16:29:58
7,Nelson Bay,-32.7167,152.15,45.0,94,0,5.28,AU,clear sky,2022-06-13 16:29:58
8,Cherskiy,68.75,161.3,56.86,38,34,2.48,RU,scattered clouds,2022-06-13 16:29:58
9,Tuktoyaktuk,69.4541,-133.0374,33.8,93,100,9.22,CA,mist,2022-06-13 16:26:04
10,Rikitea,-23.1203,-134.9692,72.86,66,0,12.08,PF,clear sky,2022-06-13 16:29:17
11,Severo-Kurilsk,50.6789,156.125,42.78,95,89,12.71,RU,overcast clouds,2022-06-13 16:29:59
12,Kartaly,53.0522,60.6467,53.74,85,95,8.01,RU,overcast clouds,2022-06-13 16:29:59
13,Kahului,20.8947,-156.47,77.85,75,0,24.16,US,clear sky,2022-06-13 16:29:59
14,Bredasdorp,-34.5322,20.0403,57.88,78,100,5.35,ZA,overcast clouds,2022-06-13 16:30:00
15,Bambous Virieux,-20.3428,57.7575,74.21,68,40,12.66,MU,scattered clouds,2022-06-13 16:30:00
16,Bossangoa,6.4926,17.4552,74.1,86,100,1.92,CF,overcast clouds,2022-06-13 16:30:00
17,Tiksi,71.6872,128.8694,43.92,69,100,1.41,RU,overcast clouds,2022-06-13 16:30:01
18,Bluff,-46.6,168.3333,43.81,81,100,36.89,NZ,light rain,2022-06-13 16:30:01
19,Marsa Matruh,31.3525,27.2453,74.25,76,0,12.3,EG,clear sky,2022-06-13 16:30:02
20,Ushuaia,-54.8,-68.3,42.46,100,75,16.11,AR,broken clouds,2022-06-13 16:30:02
21,Ilulissat,69.2167,-51.1,33.82,86,75,3.44,GL,broken clouds,2022-06-13 16:30:03
22,Atuona,-9.8,-139.0333,77.68,69,76,20.09,PF,broken clouds,2022-06-13 16:26:49
23,Lincoln,40.8,-96.667,91.13,50,0,16.11,US,clear sky,2022-06-13 16:27:28
24,Namibe,-15.1961,12.1522,72.23,78,0,28.77,AO,clear sky,2022-06-13 16:30:04
25,Busselton,-33.65,115.3333,59.09,74,94,9.75,AU,overcast clouds,2022-06-13 16:30:05
26,Mataura,-46.1927,168.8643,43.48,93,99,13.6,NZ,moderate rain,2022-06-13 16:30:06
27,Grand Gaube,-20.0064,57.6608,74.37,68,41,8.01,MU,scattered clouds,2022-06-13 16:30:06
28,Shache,38.4167,77.2406,80.94,30,100,23.55,CN,overcast clouds,2022-06-13 16:30:07
29,Jamestown,42.097,-79.2353,76.51,10,33,5.17,US,scattered clouds,2022-06-13 16:26:05
30,Arraial Do Cabo,-22.9661,-42.0278,71.46,60,40,23.02,BR,scattered clouds,2022-06-13 16:28:23
31,Northam,51.0333,-4.2167,60.39,71,50,7.2,GB,scattered clouds,2022-06-13 16:30:07
32,Lebanon,36.2081,-86.2911,93.18,70,92,11.01,US,overcast clouds,2022-06-13 16:30:04
33,Zyryanovsk,49.7386,84.2719,65.68,76,92,2.48,KZ,overcast clouds,2022-06-13 16:30:08
34,Capinzal,-27.3436,-51.6119,63.39,54,0,2.51,BR,clear sky,2022-06-13 16:30:08
35,Ribeira Grande,38.5167,-28.7,70.2,64,20,14.97,PT,few clouds,2022-06-13 16:30:09
36,Poum,-20.2333,164.0167,73.87,90,100,11.7,NC,moderate rain,2022-06-13 16:30:09
37,Vao,-22.6667,167.4833,71.51,70,100,13.33,NC,light rain,2022-06-13 16:30:09
38,Marsh Harbour,26.5412,-77.0636,82.36,77,87,10.07,BS,light rain,2022-06-13 16:30:10
39,Hermanus,-34.4187,19.2345,56.8,88,100,13.8,ZA,moderate rain,2022-06-13 16:30:10
40,Amod,21.9833,72.9,85.39,72,51,14.0,IN,broken clouds,2022-06-13 16:30:11
41,Cape Town,-33.9258,18.4232,56.26,92,100,11.5,ZA,moderate rain,2022-06-13 16:29:31
42,Barrow,71.2906,-156.7887,30.22,86,20,14.97,US,few clouds,2022-06-13 16:29:55
43,Kainantu,-6.2887,145.8655,56.53,96,40,1.66,PG,scattered clouds,2022-06-13 16:30:11
44,Talnakh,69.4865,88.3972,62.1,64,79,1.81,RU,broken clouds,2022-06-13 16:30:12
45,Krasnoslobodsk,48.7072,44.5714,78.62,31,0,4.47,RU,clear sky,2022-06-13 16:31:12
46,Sur,22.5667,59.5289,84.27,74,0,18.52,OM,clear sky,2022-06-13 16:31:12
47,Fortuna,40.5982,-124.1573,59.86,71,40,12.66,US,scattered clouds,2022-06-13 16:31:13
48,Puerto Ayora,-0.7393,-90.3518,78.76,88,82,5.99,EC,broken clouds,2022-06-13 16:31:13
49,Nantucket,41.2835,-70.0995,77.11,88,100,12.66,US,overcast clouds,2022-06-13 16:28:05
50,Hobart,-42.8794,147.3294,40.05,91,85,5.75,AU,overcast clouds,2022-06-13 16:27:17
51,Isangel,-19.55,169.2667,75.78,88,94,5.06,VU,overcast clouds,2022-06-13 16:31:14
52,Wad Madani,14.4012,33.5199,101.53,21,62,7.07,SD,broken clouds,2022-06-13 16:30:24
53,Mayo,38.8876,-76.5119,92.12,71,0,3.44,US,clear sky,2022-06-13 16:30:19
54,Hernani,43.2662,-1.9762,74.93,71,0,5.75,ES,clear sky,2022-06-13 16:31:14
55,Upata,8.0086,-62.3989,72.64,87,100,3.0,VE,overcast clouds,2022-06-13 16:31:14
56,Ngama,11.7833,17.1667,87.73,44,100,12.82,TD,overcast clouds,2022-06-13 16:31:15
57,Thompson,55.7435,-97.8558,71.76,46,20,2.3,CA,few clouds,2022-06-13 16:28:05
58,Mehamn,71.0357,27.8492,44.55,87,75,12.66,NO,broken clouds,2022-06-13 16:31:15
59,Carballo,43.213,-8.691,85.42,72,26,6.96,ES,scattered clouds,2022-06-13 16:31:15
60,Wuda,39.4994,106.7117,71.91,19,1,5.61,CN,clear sky,2022-06-13 16:31:15
61,Chokurdakh,70.6333,147.9167,58.59,35,0,9.31,RU,clear sky,2022-06-13 16:31:16
62,Port Alfred,-33.5906,26.891,74.17,41,100,12.33,ZA,overcast clouds,2022-06-13 16:31:16
63,Am Timan,11.0297,20.2827,87.66,46,100,7.09,TD,overcast clouds,2022-06-13 16:31:17
64,Nizhniy Ingash,56.2,96.53,59.63,94,9,4.97,RU,clear sky,2022-06-13 16:31:17
65,Tessalit,20.1986,1.0114,104.92,11,56,5.73,ML,broken clouds,2022-06-13 16:31:17
66,Saldanha,-33.0117,17.9442,57.25,87,100,16.93,ZA,light rain,2022-06-13 16:31:17
67,Upernavik,72.7868,-56.1549,31.48,80,98,6.6,GL,overcast clouds,2022-06-13 16:31:18
68,Castro,-24.7911,-50.0119,59.76,50,0,4.85,BR,clear sky,2022-06-13 16:31:18
69,Provideniya,64.3833,-173.3,36.23,87,99,3.15,RU,overcast clouds,2022-06-13 16:31:18
70,Goulburn,-34.75,149.7167,32.54,93,0,3.15,AU,clear sky,2022-06-13 16:26:30
71,Albany,42.6001,-73.9662,78.93,59,67,1.01,US,broken clouds,2022-06-13 16:28:44
72,Katsuura,35.1333,140.3,64.47,75,100,13.47,JP,overcast clouds,2022-06-13 16:31:19
73,Kendari,-3.945,122.4989,73.51,93,98,2.51,ID,overcast clouds,2022-06-13 16:29:17
74,Tubuala,9.5167,-79.0333,84.02,69,99,4.05,PA,overcast clouds,2022-06-13 16:31:19
75,Necochea,-38.5473,-58.7368,63.25,41,61,14.34,AR,broken clouds,2022-06-13 16:31:19
76,Acarau,-2.8856,-40.12,84.4,66,26,11.56,BR,scattered clouds,2022-06-13 16:27:44
77,Nha Trang,12.25,109.1833,84.2,88,99,4.32,VN,overcast clouds,2022-06-13 16:31:05
78,Victoria,22.2855,114.1577,84.38,85,96,11.01,HK,overcast clouds,2022-06-13 16:31:20
79,Dangriga,16.9692,-88.2321,80.4,85,100,12.55,BZ,overcast clouds,2022-06-13 16:31:20
80,Bandarbeyla,9.4942,50.8122,79.21,79,73,29.84,SO,broken clouds,2022-06-13 16:31:20
81,Aklavik,68.2191,-135.0107,46.89,60,98,6.93,CA,overcast clouds,2022-06-13 16:31:21
82,Chimoio,-19.1164,33.4833,61.21,82,89,4.45,MZ,overcast clouds,2022-06-13 16:31:21
83,East London,-33.0153,27.9116,77.94,31,0,8.05,ZA,clear sky,2022-06-13 16:31:21
84,Saint-Joseph,-21.3667,55.6167,70.18,76,46,15.01,RE,scattered clouds,2022-06-13 16:31:22
85,Newport,51.5877,-2.9984,70.12,59,100,9.4,GB,overcast clouds,2022-06-13 16:30:01
86,Hilo,19.7297,-155.09,81.28,73,100,6.91,US,overcast clouds,2022-06-13 16:31:22
87,Vardo,70.3705,31.1107,46.38,81,40,12.66,NO,scattered clouds,2022-06-13 16:31:22
88,Vaini,-21.2,-175.2,73.56,100,20,3.44,TO,few clouds,2022-06-13 16:31:23
89,Ayr,55.4627,-4.6339,58.93,72,75,11.5,GB,broken clouds,2022-06-13 16:31:23
90,Usak,38.5,29.4167,67.24,58,83,10.85,TR,light rain,2022-06-13 16:31:23
91,High Prairie,55.4334,-116.4858,60.66,61,97,1.25,CA,overcast clouds,2022-06-13 16:32:24
92,Masumbwe,-3.6333,32.1833,74.91,43,82,1.07,TZ,broken clouds,2022-06-13 16:32:24
93,Butaritari,3.0707,172.7902,81.39,72,43,11.25,KI,scattered clouds,2022-06-13 16:32:24
94,Arman,59.7,150.1667,43.02,91,100,3.85,RU,overcast clouds,2022-06-13 16:32:13
95,Port-Gentil,-0.7193,8.7815,82.36,74,40,12.66,GA,scattered clouds,2022-06-13 16:32:25
96,Haines Junction,60.7522,-137.5108,44.55,87,100,1.14,CA,overcast clouds,2022-06-13 16:32:25
97,Biankouma,7.7391,-7.6138,79.77,75,64,2.55,CI,light rain,2022-06-13 16:32:25
98,Pandamatenga,-18.5278,25.627,60.94,42,0,6.6,BW,clear sky,2022-06-13 16:32:25
99,Broken Hill,-31.95,141.4333,45.34,71,0,8.05,AU,clear sky,2022-06-13 16:32:26
100,Nikolskoye,59.7035,30.7861,66.09,66,76,3.98,RU,broken clouds,2022-06-13 16:32:26
101,Lebu,-37.6167,-73.65,54.12,75,100,7.92,CL,overcast clouds,2022-06-13 16:32:26
102,Dali,25.7,100.1833,63.46,92,62,1.45,CN,broken clouds,2022-06-13 16:32:27
103,Mount Gambier,-37.8333,140.7667,43.56,84,85,6.8,AU,overcast clouds,2022-06-13 16:32:27
104,Klaksvik,62.2266,-6.589,50.92,96,100,9.69,FO,overcast clouds,2022-06-13 16:32:27
105,Qaanaaq,77.484,-69.3632,31.08,60,0,2.28,GL,clear sky,2022-06-13 16:32:28
106,Launceston,-41.45,147.1667,33.15,93,29,4.61,AU,scattered clouds,2022-06-13 16:32:28
107,Goderich,43.7501,-81.7165,61.92,77,53,9.22,CA,broken clouds,2022-06-13 16:30:05
108,Mitsamiouli,-11.3847,43.2844,78.73,70,5,6.11,KM,clear sky,2022-06-13 16:32:28
109,Muros,42.7762,-9.0603,94.68,56,15,3.06,ES,few clouds,2022-06-13 16:32:29
110,Torbay,47.6666,-52.7314,57.88,77,40,8.05,CA,scattered clouds,2022-06-13 16:28:09
111,Dosso,13.049,3.1937,104.23,22,12,9.37,NE,few clouds,2022-06-13 16:32:29
112,Kapaa,22.0752,-159.319,74.48,91,40,14.97,US,light rain,2022-06-13 16:32:29
113,Lata,40.1629,-8.3327,87.49,48,42,9.13,PT,scattered clouds,2022-06-13 16:32:30
114,Mwinilunga,-11.7358,24.4293,62.58,47,8,4.43,ZM,clear sky,2022-06-13 16:32:30
115,Limbang,4.75,115.0,78.91,98,97,1.99,MY,overcast clouds,2022-06-13 16:32:30
116,Kavieng,-2.5744,150.7967,81.81,74,15,14.2,PG,few clouds,2022-06-13 16:32:31
117,Vanimo,-2.6741,141.3028,77.22,89,17,6.71,PG,few clouds,2022-06-13 16:32:31
118,Viransehir,37.2353,39.7631,81.88,34,0,19.89,TR,clear sky,2022-06-13 16:32:31
119,Brae,60.3964,-1.353,51.21,94,100,16.87,GB,light rain,2022-06-13 16:32:32
120,Atherton,53.5237,-2.4935,63.9,59,70,5.01,GB,broken clouds,2022-06-13 16:32:32
121,Qasigiannguit,68.8193,-51.1922,34.05,77,99,11.45,GL,overcast clouds,2022-06-13 16:32:32
122,Smithers,54.7804,-127.1743,48.52,76,75,2.3,CA,broken clouds,2022-06-13 16:28:05
123,Trincomalee,8.5711,81.2335,80.8,78,99,9.75,LK,overcast clouds,2022-06-13 16:32:33
124,Lompoc,34.6391,-120.4579,70.61,72,0,17.27,US,clear sky,2022-06-13 16:30:05
125,Nizhnevartovsk,60.9344,76.5531,59.02,100,75,4.47,RU,light intensity shower rain,2022-06-13 16:32:33
126,Ostrovnoy,68.0531,39.5131,52.5,87,100,3.11,RU,light rain,2022-06-13 16:32:33
127,Tigzirt,36.8886,4.1198,83.08,47,1,10.13,DZ,clear sky,2022-06-13 16:32:33
128,Solnechnyy,50.7214,136.6319,57.16,81,93,4.65,RU,overcast clouds,2022-06-13 16:32:34
129,Quelimane,-17.8786,36.8883,66.29,93,25,2.95,MZ,scattered clouds,2022-06-13 16:32:34
130,Bandar-E Lengeh,26.5579,54.8807,93.31,59,0,9.22,IR,haze,2022-06-13 16:32:34
131,Kruisfontein,-34.0033,24.7314,61.88,42,100,1.36,ZA,overcast clouds,2022-06-13 16:32:35
132,San Andres,12.5847,-81.7006,75.22,94,75,5.75,CO,broken clouds,2022-06-13 16:32:35
133,Praia Da Vitoria,38.7333,-27.0667,70.75,88,20,11.9,PT,few clouds,2022-06-13 16:32:35
134,Avarua,-21.2078,-159.775,68.05,94,80,1.14,CK,broken clouds,2022-06-13 16:32:36
135,Aswan,24.0934,32.907,108.7,10,0,12.66,EG,clear sky,2022-06-13 16:33:36
136,Saskylakh,71.9167,114.0833,59.04,53,43,3.71,RU,scattered clouds,2022-06-13 16:33:36
137,Saint-Augustin,51.226,-58.6502,63.88,53,90,9.57,CA,overcast clouds,2022-06-13 16:33:36
138,Sitka,57.0531,-135.33,49.89,87,100,0.0,US,overcast clouds,2022-06-13 16:33:37
139,Saint-Philippe,-21.3585,55.7679,71.19,76,57,14.99,RE,broken clouds,2022-06-13 16:33:37
140,Great Yarmouth,52.6083,1.7305,68.07,69,52,8.84,GB,broken clouds,2022-06-13 16:33:37
141,Namatanai,-3.6667,152.4333,78.71,78,13,8.99,PG,few clouds,2022-06-13 16:33:38
142,Venice,27.0998,-82.4543,92.05,71,0,6.91,US,clear sky,2022-06-13 16:32:02
143,Paamiut,61.994,-49.6678,35.82,81,11,33.46,GL,few clouds,2022-06-13 16:33:38
144,Novyy Urengoy,66.0833,76.6333,63.23,71,99,13.13,RU,overcast clouds,2022-06-13 16:33:38
145,Balikpapan,-1.2675,116.8289,76.19,94,20,4.61,ID,few clouds,2022-06-13 16:33:39
146,Benjamin Constant,-4.3831,-70.0311,77.13,65,75,8.05,BR,broken clouds,2022-06-13 16:33:39
147,Esperance,-33.8667,121.9,59.85,79,86,23.49,AU,light rain,2022-06-13 16:33:39
148,Port Elizabeth,-33.918,25.5701,64.09,77,0,4.61,ZA,clear sky,2022-06-13 16:33:39
149,Kuruman,-27.4524,23.4325,63.0,42,88,10.67,ZA,overcast clouds,2022-06-13 16:33:40
150,Pisco,-13.7,-76.2167,61.02,94,100,4.61,PE,light intensity drizzle,2022-06-13 16:33:40
151,Sri Aman,1.2376,111.4621,75.25,94,100,0.0,MY,overcast clouds,2022-06-13 16:33:40
152,Viedma,-40.8135,-62.9967,62.67,35,100,16.67,AR,overcast clouds,2022-06-13 16:33:41
153,Nyrob,60.733,56.7202,52.72,61,0,2.66,RU,clear sky,2022-06-13 16:33:41
154,Barcelos,41.5388,-8.6151,89.92,49,46,4.83,PT,scattered clouds,2022-06-13 16:31:03
155,Laguna,38.421,-121.4238,71.89,42,0,12.66,US,clear sky,2022-06-13 16:33:41
156,Lensk,60.7253,114.9278,50.38,78,9,2.21,RU,clear sky,2022-06-13 16:33:42
157,Mareeba,-17.0,145.4333,59.72,97,31,2.3,AU,scattered clouds,2022-06-13 16:33:42
158,Palembang,-2.9167,104.7458,77.09,94,40,2.3,ID,scattered clouds,2022-06-13 16:33:42
159,Ewa Beach,21.3156,-158.0072,78.75,74,20,11.5,US,few clouds,2022-06-13 16:33:42
160,Nanortalik,60.1432,-45.2371,38.88,73,7,28.97,GL,clear sky,2022-06-13 16:33:43
161,Khatanga,71.9667,102.5,62.91,43,96,6.51,RU,overcast clouds,2022-06-13 16:33:43
162,Bilma,18.6853,12.9164,105.69,8,2,7.45,NE,clear sky,2022-06-13 16:33:43
163,Portland,45.5234,-122.6762,57.38,74,100,5.99,US,overcast clouds,2022-06-13 16:32:27
164,Altay,47.8667,88.1167,73.13,35,85,6.08,CN,overcast clouds,2022-06-13 16:33:44
165,Yellowknife,62.456,-114.3525,64.92,63,20,6.91,CA,few clouds,2022-06-13 16:33:44
166,Yerbogachen,61.2767,108.0108,53.58,62,96,1.39,RU,overcast clouds,2022-06-13 16:33:44
167,Constitucion,-35.3333,-72.4167,53.64,75,100,3.42,CL,overcast clouds,2022-06-13 16:33:15
168,Sheboygan,43.7333,-87.9334,75.18,77,0,10.36,US,clear sky,2022-06-13 16:33:45
169,Sao Filipe,14.8961,-24.4956,75.04,73,2,8.88,CV,clear sky,2022-06-13 16:33:45
170,Kuah,6.3265,99.8432,80.58,89,20,2.3,MY,few clouds,2022-06-13 16:33:45
171,Derzhavinsk,51.1,66.3167,59.18,78,37,14.67,KZ,scattered clouds,2022-06-13 16:33:46
172,Lahij,13.1667,44.5833,90.09,46,93,2.06,YE,overcast clouds,2022-06-13 16:33:46
173,Souillac,-20.5167,57.5167,73.78,68,40,12.66,MU,scattered clouds,2022-06-13 16:33:46
174,San Vicente,-26.6167,-54.1333,62.49,43,0,2.98,AR,clear sky,2022-06-13 16:32:08
175,Uige,-7.6087,15.0613,84.22,48,20,6.91,AO,few clouds,2022-06-13 16:33:47
176,Sainte-Suzanne,-20.9061,55.6089,72.46,79,75,18.41,RE,broken clouds,2022-06-13 16:33:47
177,Banjar,-8.19,114.9675,77.43,90,98,3.44,ID,overcast clouds,2022-06-13 16:33:47
178,Dolores,-36.3132,-57.6792,63.52,39,49,11.01,AR,scattered clouds,2022-06-13 16:33:48
179,Rio Brilhante,-21.8019,-54.5464,68.67,29,0,4.05,BR,clear sky,2022-06-13 16:33:48
180,Namuac,18.6109,121.1657,80.19,85,100,4.43,PH,overcast clouds,2022-06-13 16:34:48
181,Georgiyevka,43.0369,74.7114,68.04,64,40,13.42,KZ,scattered clouds,2022-06-13 16:34:49
182,Pouembout,-21.1333,164.9,70.88,93,100,5.68,NC,overcast clouds,2022-06-13 16:34:49
183,Georgetown,5.4112,100.3354,82.35,88,20,3.44,MY,few clouds,2022-06-13 16:34:26
184,Innisfail,-17.5333,146.0333,60.21,79,15,4.38,AU,few clouds,2022-06-13 16:34:49
185,Kayes,14.0,-11.0,98.64,29,100,6.82,ML,overcast clouds,2022-06-13 16:34:50
186,Illapel,-31.6308,-71.1653,68.49,35,98,5.39,CL,overcast clouds,2022-06-13 16:34:50
187,Pahrump,36.2083,-115.9839,84.25,33,0,11.01,US,clear sky,2022-06-13 16:34:50
188,Port Said,31.2565,32.2841,78.78,73,0,11.5,EG,clear sky,2022-06-13 16:34:50
189,Itaituba,-4.2761,-55.9836,87.96,66,75,5.75,BR,broken clouds,2022-06-13 16:34:51
190,Newcastleton,55.1796,-2.8127,57.04,87,100,12.37,GB,overcast clouds,2022-06-13 16:34:51
191,Gambo,4.6482,22.2633,71.38,97,54,2.13,CF,light rain,2022-06-13 16:34:51
192,Zabol,32.25,67.25,75.31,10,0,11.95,AF,clear sky,2022-06-13 16:34:52
193,Salalah,17.0151,54.0924,86.09,84,75,10.36,OM,broken clouds,2022-06-13 16:34:15
194,Alice Springs,-23.7,133.8833,40.55,75,6,0.0,AU,clear sky,2022-06-13 16:34:52
195,Zhicheng,30.2956,111.5047,71.64,82,62,2.01,CN,broken clouds,2022-06-13 16:34:52
196,Udachnyy,66.4167,112.4,57.45,54,14,5.57,RU,few clouds,2022-06-13 16:34:53
197,Bemidji,47.4736,-94.8803,73.89,88,40,6.91,US,scattered clouds,2022-06-13 16:33:24
198,Matiari,25.5961,68.4467,90.14,54,0,18.68,PK,clear sky,2022-06-13 16:34:53
199,San Patricio,28.017,-97.5169,92.12,37,77,19.71,US,broken clouds,2022-06-13 16:34:53
200,Beira,-19.8436,34.8389,69.13,85,6,6.96,MZ,clear sky,2022-06-13 16:34:53
201,Mar Del Plata,-38.0023,-57.5575,62.94,54,0,9.22,AR,clear sky,2022-06-13 16:34:54
202,Ancud,-41.8697,-73.8203,52.23,92,100,10.74,CL,light rain,2022-06-13 16:34:54
203,Solntsevo,51.4185,36.7499,74.23,79,9,3.06,RU,clear sky,2022-06-13 16:34:54
204,Ketchikan,55.3422,-131.6461,52.27,82,100,4.61,US,overcast clouds,2022-06-13 16:34:55
205,Mahebourg,-20.4081,57.7,74.25,68,40,12.66,MU,scattered clouds,2022-06-13 16:34:55
206,Dikson,73.5069,80.5464,30.09,86,100,13.24,RU,overcast clouds,2022-06-13 16:34:55
207,Tasiilaq,65.6145,-37.6368,39.36,96,100,10.78,GL,moderate rain,2022-06-13 16:34:56
208,Port Blair,11.6667,92.75,82.44,83,40,2.3,IN,mist,2022-06-13 16:34:56
209,Henties Bay,-22.116,14.2845,61.05,82,0,3.27,NA,clear sky,2022-06-13 16:34:56
210,Pamplona,42.8169,-1.6432,87.98,45,0,10.36,ES,clear sky,2022-06-13 16:34:56
211,Norman Wells,65.282,-126.8329,44.64,87,100,13.8,CA,overcast clouds,2022-06-13 16:34:57
212,Sola,-13.8833,167.55,80.44,79,100,12.44,VU,overcast clouds,2022-06-13 16:34:57
213,Westport,41.1415,-73.3579,85.28,77,59,1.99,US,broken clouds,2022-06-13 16:33:11
214,Nakhon Si Thammarat,8.25,100.0,78.15,89,71,2.33,TH,light rain,2022-06-13 16:34:57
215,Shieli,44.1667,66.75,82.47,19,80,8.59,KZ,broken clouds,2022-06-13 16:34:58
216,Hithadhoo,-0.6,73.0833,83.7,72,62,5.79,MV,broken clouds,2022-06-13 16:34:58
217,Leticia,-4.2153,-69.9406,77.05,69,75,8.05,CO,broken clouds,2022-06-13 16:34:58
218,Lorengau,-2.0226,147.2712,82.81,73,79,11.43,PG,broken clouds,2022-06-13 16:34:59
219,Tuatapere,-46.1333,167.6833,43.86,84,98,21.16,NZ,light rain,2022-06-13 16:34:59
220,Lagoa,39.05,-27.9833,63.07,77,8,12.01,PT,clear sky,2022-06-13 16:34:59
221,Ballitoville,-29.539,31.2144,69.24,82,0,3.44,ZA,clear sky,2022-06-13 16:34:59
222,Waipawa,-41.4122,175.5153,42.4,84,38,6.69,NZ,scattered clouds,2022-06-13 16:35:00
223,Zaraza,9.3503,-65.3245,73.06,96,96,5.1,VE,overcast clouds,2022-06-13 16:35:00
224,Kingsland,30.8,-81.6898,89.91,75,45,4.29,US,scattered clouds,2022-06-13 16:35:00
225,Pangnirtung,66.1451,-65.7125,35.6,93,40,4.61,CA,scattered clouds,2022-06-13 16:35:01
226,Aksarka,66.5606,67.7975,42.71,77,100,19.69,RU,overcast clouds,2022-06-13 16:35:01
227,Berdigestyakh,62.0989,126.6992,46.4,88,64,5.35,RU,broken clouds,2022-06-13 16:33:08
228,Geraldton,-28.7667,114.6,59.41,82,100,5.75,AU,overcast clouds,2022-06-13 16:31:08
229,Cayenne,4.9333,-52.3333,87.84,22,40,8.05,GF,scattered clouds,2022-06-13 16:36:01
230,Bombay,19.0144,72.8479,84.18,84,40,6.91,IN,haze,2022-06-13 16:34:00
231,Awbari,26.5921,12.7805,93.99,15,26,12.55,LY,scattered clouds,2022-06-13 16:36:02
232,New Norfolk,-42.7826,147.0587,39.7,86,76,3.18,AU,broken clouds,2022-06-13 16:36:02
233,Boende,-0.2167,20.8667,73.08,90,100,3.76,CD,moderate rain,2022-06-13 16:36:02
234,Stornoway,58.2093,-6.3865,55.36,78,75,14.97,GB,broken clouds,2022-06-13 16:36:03
235,Anadyr,64.75,177.4833,43.3,56,0,15.66,RU,clear sky,2022-06-13 16:36:03
236,Vila Velha,-20.3297,-40.2925,75.15,76,40,17.27,BR,scattered clouds,2022-06-13 16:34:10
237,Qaqortoq,60.7167,-46.0333,45.28,50,2,9.8,GL,clear sky,2022-06-13 16:36:03
238,Calama,-22.4667,-68.9333,68.49,3,0,13.8,CL,clear sky,2022-06-13 16:36:04
239,Concepcion Del Oro,24.6333,-101.4167,71.89,30,1,8.59,MX,clear sky,2022-06-13 16:36:04
240,La Libertad,-2.2333,-80.9,73.06,83,100,9.22,EC,overcast clouds,2022-06-13 16:36:04
241,Martapura,-3.4167,114.85,75.29,100,100,4.61,ID,overcast clouds,2022-06-13 16:36:04
242,Russell,32.3502,-85.1999,94.37,62,20,0.0,US,few clouds,2022-06-13 16:36:05
243,Biryusinsk,55.9634,97.8235,57.99,94,24,5.26,RU,few clouds,2022-06-13 16:36:05
244,Carnarvon,-24.8667,113.6333,66.78,62,0,14.43,AU,clear sky,2022-06-13 16:36:05
245,Port Hardy,50.6996,-127.4199,51.98,82,75,3.44,CA,broken clouds,2022-06-13 16:36:06
246,Santa Fe,-31.6333,-60.7,69.01,36,4,5.01,AR,light rain,2022-06-13 16:36:06
247,Yumbo,3.5823,-76.4915,81.09,60,75,2.3,CO,broken clouds,2022-06-13 16:31:27
248,College,64.8569,-147.8028,61.2,69,75,4.61,US,smoke,2022-06-13 16:36:06
249,Kosh-Agach,50.0,88.6667,57.15,76,100,1.1,RU,overcast clouds,2022-06-13 16:36:07
250,Iwanai,42.9744,140.5089,52.47,96,1,5.37,JP,clear sky,2022-06-13 16:36:07
251,Vostok,46.4856,135.8833,48.54,83,35,4.38,RU,scattered clouds,2022-06-13 16:36:07
252,Jamsa,61.8642,25.19,63.14,83,51,8.28,FI,broken clouds,2022-06-13 16:36:08
253,Kodiak,57.79,-152.4072,47.71,81,100,8.05,US,smoke,2022-06-13 16:36:08
254,Iqaluit,63.7506,-68.5145,42.53,75,75,8.05,CA,broken clouds,2022-06-13 16:36:08
255,Korla,41.7597,86.1469,86.52,9,1,4.36,CN,clear sky,2022-06-13 16:36:09
256,Leh,34.1667,77.5833,56.34,39,12,7.2,IN,few clouds,2022-06-13 16:36:09
257,San Carlos De Bariloche,-41.1456,-71.3082,44.24,55,75,3.44,AR,broken clouds,2022-06-13 16:31:25
258,Oksfjord,70.2396,22.3479,53.67,75,43,5.39,NO,scattered clouds,2022-06-13 16:36:09
259,San Jose,37.3394,-121.895,70.05,60,20,6.91,US,haze,2022-06-13 16:32:40
260,Mae Chan,20.1467,99.8526,82.06,92,100,1.54,TH,overcast clouds,2022-06-13 16:36:10
261,Hobyo,5.3505,48.5268,79.56,77,93,27.4,SO,overcast clouds,2022-06-13 16:36:10
262,Touros,-5.1989,-35.4608,83.8,60,18,13.94,BR,few clouds,2022-06-13 16:36:10
263,Santa Marta,11.2408,-74.199,87.85,66,20,10.36,CO,few clouds,2022-06-13 16:35:56
264,Kasungu,-13.0333,33.4833,62.24,53,46,6.58,MW,scattered clouds,2022-06-13 16:36:11
265,Gimli,50.6336,-96.9907,57.22,100,91,9.22,CA,overcast clouds,2022-06-13 16:36:11
266,Dabakala,8.3667,-4.4333,85.41,58,72,6.55,CI,broken clouds,2022-06-13 16:36:12
267,Malanje,-9.5402,16.341,69.4,28,8,1.61,AO,clear sky,2022-06-13 16:36:12
268,Gberia Fotombu,9.8833,-11.1667,81.91,67,70,1.77,SL,light rain,2022-06-13 16:36:12
269,Husavik,66.0449,-17.3389,54.9,68,100,9.31,IS,overcast clouds,2022-06-13 16:36:12
270,Kaitangata,-46.2817,169.8464,42.35,91,81,17.58,NZ,broken clouds,2022-06-13 16:36:13
271,Faanui,-16.4833,-151.75,79.56,67,6,20.51,PF,clear sky,2022-06-13 16:36:13
272,Khvatovka,52.3524,46.5628,63.46,57,48,3.38,RU,scattered clouds,2022-06-13 16:37:13
273,Lasa,46.6166,10.7002,72.48,50,49,5.39,IT,scattered clouds,2022-06-13 16:37:14
274,Toora-Khem,52.4675,96.11,57.56,91,100,2.13,RU,overcast clouds,2022-06-13 16:37:14
275,Sirhind,30.6456,76.3825,98.42,16,19,6.96,IN,few clouds,2022-06-13 16:37:14
276,Shirpur,21.35,74.8833,86.47,63,65,13.47,IN,broken clouds,2022-06-13 16:37:15
277,Lewisporte,49.2499,-55.0482,62.31,48,70,6.58,CA,broken clouds,2022-06-13 16:37:15
278,Ocean City,39.2776,-74.5746,88.29,74,71,5.01,US,broken clouds,2022-06-13 16:37:15
279,Yinchuan,38.4681,106.2731,73.85,17,0,5.48,CN,clear sky,2022-06-13 16:37:15
280,Araceli,10.5529,119.9913,82.78,73,92,4.07,PH,overcast clouds,2022-06-13 16:37:16
281,Maneadero,31.7167,-116.5667,67.1,85,8,3.0,MX,clear sky,2022-06-13 16:37:16
282,Komsomolskiy,40.4272,71.7189,77.72,31,98,9.22,UZ,overcast clouds,2022-06-13 16:37:16
283,Hualmay,-11.0964,-77.6139,66.97,71,60,7.94,PE,broken clouds,2022-06-13 16:37:17
284,Hof,50.3167,11.9167,64.49,46,0,11.99,DE,clear sky,2022-06-13 16:37:17
285,Svalyava,48.5485,22.9958,74.61,68,44,3.22,UA,scattered clouds,2022-06-13 16:37:17
286,Ous,60.9058,61.5186,53.83,71,47,3.29,RU,scattered clouds,2022-06-13 16:37:18
287,Progreso,21.2833,-89.6667,92.1,60,86,15.37,MX,overcast clouds,2022-06-13 16:37:18
288,Gerash,27.6652,54.1371,93.34,30,0,5.26,IR,clear sky,2022-06-13 16:37:18
289,Vilhena,-12.7406,-60.1458,73.62,38,0,8.05,BR,clear sky,2022-06-13 16:37:18
290,Razdolinsk,58.4211,94.6658,58.5,88,72,0.65,RU,broken clouds,2022-06-13 16:37:19
291,San Lorenzo,-25.3333,-57.5333,65.59,32,0,5.01,PY,clear sky,2022-06-13 16:32:52
292,Bayangol,50.6977,103.4656,54.12,85,91,3.69,RU,overcast clouds,2022-06-13 16:37:19
293,Bengkulu,-3.8004,102.2655,75.81,87,98,4.03,ID,overcast clouds,2022-06-13 16:37:20
294,Magadan,59.5667,150.8,42.53,92,100,2.59,RU,overcast clouds,2022-06-13 16:37:20
295,Naze,28.3667,129.4833,74.32,87,93,20.04,JP,overcast clouds,2022-06-13 16:37:20
296,Hambantota,6.1241,81.1185,80.64,81,53,16.04,LK,broken clouds,2022-06-13 16:37:21
297,Shenzhen,22.5455,114.0683,84.27,95,100,8.43,CN,overcast clouds,2022-06-13 16:35:43
298,Sterling,39.0062,-77.4286,91.22,62,40,5.99,US,scattered clouds,2022-06-13 16:35:25
299,Nome,64.5011,-165.4064,41.07,82,100,6.91,US,light rain,2022-06-13 16:37:21
300,Kaeo,-35.1,173.7833,51.33,91,27,9.89,NZ,scattered clouds,2022-06-13 16:37:22
301,Kerema,-7.9631,145.7785,78.17,88,100,2.86,PG,overcast clouds,2022-06-13 16:37:22
302,Tuy Hoa,13.0833,109.3,79.43,86,76,7.09,VN,broken clouds,2022-06-13 16:37:22
303,Itoman,26.1247,127.6694,81.37,96,75,18.41,JP,light intensity shower rain,2022-06-13 16:37:22
304,Galbshtadt,53.2264,78.9845,72.12,45,48,8.48,RU,scattered clouds,2022-06-13 16:37:23
305,Cabo San Lucas,22.8909,-109.9124,92.61,53,40,4.61,MX,scattered clouds,2022-06-13 16:37:23
306,Werda,-25.2667,23.2833,62.83,30,6,8.5,BW,clear sky,2022-06-13 16:37:23
307,Karratha,-20.7377,116.8463,73.08,63,0,6.67,AU,light rain,2022-06-13 16:37:24
308,Pemangkat,1.1667,108.9667,76.78,88,100,6.4,ID,overcast clouds,2022-06-13 16:37:24
309,Bogovarovo,58.9785,47.0246,58.91,62,55,2.21,RU,broken clouds,2022-06-13 16:37:24
310,Kostolac,44.7149,21.1711,84.25,57,67,5.23,RS,broken clouds,2022-06-13 16:37:25
311,Abu Samrah,35.3029,37.1841,73.08,55,0,17.85,SY,clear sky,2022-06-13 16:37:25
312,Cooma,-36.2333,149.1333,26.37,100,100,4.61,AU,overcast clouds,2022-06-13 16:37:25
313,Pevek,69.7008,170.3133,33.08,79,54,1.61,RU,broken clouds,2022-06-13 16:37:26
314,Lethem,3.3803,-59.7968,84.54,66,56,2.24,GY,broken clouds,2022-06-13 16:37:26
315,Carbondale,37.7273,-89.2168,91.06,73,40,14.97,US,scattered clouds,2022-06-13 16:33:25
316,Lahaina,20.8783,-156.6825,76.8,85,9,9.28,US,clear sky,2022-06-13 16:37:01
317,Estreito,-5.7833,-43.25,85.23,61,1,2.15,BR,clear sky,2022-06-13 16:38:26
318,Longyearbyen,78.2186,15.6401,42.64,65,75,9.22,SJ,broken clouds,2022-06-13 16:33:47
319,Kazachinskoye,57.6953,93.2761,62.46,89,38,3.24,RU,scattered clouds,2022-06-13 16:38:27
320,Porbandar,21.6422,69.6093,84.99,74,7,9.06,IN,clear sky,2022-06-13 16:38:27
321,Kankon,15.0167,74.0167,78.6,79,78,5.01,IN,broken clouds,2022-06-13 16:38:27
322,Milkovo,54.7167,158.6167,46.47,82,100,1.12,RU,overcast clouds,2022-06-13 16:38:28
323,Broome,42.2506,-75.833,76.69,60,40,10.36,US,scattered clouds,2022-06-13 16:38:28
324,Lucea,18.451,-78.1736,87.66,67,100,19.08,JM,overcast clouds,2022-06-13 16:38:28
325,North Bend,43.4065,-124.2243,56.91,71,100,9.22,US,overcast clouds,2022-06-13 16:38:28
326,Sioux Lookout,50.1001,-91.917,64.47,63,100,9.22,CA,overcast clouds,2022-06-13 16:38:29
327,Krasnogorsk,55.8225,37.3181,73.06,83,0,4.47,RU,clear sky,2022-06-13 16:37:24
328,Catamarca,-28.4696,-65.7852,82.58,28,0,13.67,AR,clear sky,2022-06-13 16:38:29
329,Te Anau,-45.4167,167.7167,42.67,89,97,11.99,NZ,light rain,2022-06-13 16:38:29
330,Luanda,-8.8368,13.2343,73.49,81,22,12.64,AO,few clouds,2022-06-13 16:36:05
331,Kupang,-10.1667,123.5833,75.7,79,97,10.98,ID,overcast clouds,2022-06-13 16:38:30
332,Quang Ngai,15.1167,108.8,79.43,84,92,3.62,VN,overcast clouds,2022-06-13 16:38:30
333,San Pedro,14.35,121.0167,83.43,83,75,2.3,PH,broken clouds,2022-06-13 16:38:30
334,Koundara,12.4833,-13.3,94.46,43,99,0.81,GN,overcast clouds,2022-06-13 16:38:31
335,Kirakira,-10.4544,161.9205,79.52,84,100,8.05,SB,overcast clouds,2022-06-13 16:38:31
336,Nyurba,63.2842,118.3319,51.53,91,95,4.38,RU,overcast clouds,2022-06-13 16:38:31
337,Elat,29.5581,34.9482,94.84,26,0,13.8,IL,clear sky,2022-06-13 16:38:32
338,Mabai,23.0128,104.4508,60.58,98,100,4.32,CN,light rain,2022-06-13 16:38:32
339,Sechura,-5.5569,-80.8222,72.52,61,44,7.47,PE,scattered clouds,2022-06-13 16:38:32
340,Narsaq,60.9167,-46.05,48.42,46,3,4.03,GL,clear sky,2022-06-13 16:38:32
341,Wembley,-31.9333,115.8,58.35,91,75,3.44,AU,broken clouds,2022-06-13 16:38:33
342,Onguday,50.75,86.15,59.58,87,87,1.14,RU,heavy intensity rain,2022-06-13 16:38:33
343,Ayorou,14.7308,0.9174,104.25,21,36,5.66,NE,scattered clouds,2022-06-13 16:38:33
344,Ndele,8.4109,20.6473,75.13,79,94,4.41,CF,overcast clouds,2022-06-13 16:38:34
345,Sinnamary,5.3833,-52.95,82.17,79,73,6.91,GF,broken clouds,2022-06-13 16:38:34
346,Nemuro,43.3236,145.575,46.54,88,70,9.08,JP,broken clouds,2022-06-13 16:38:34
347,Turukhansk,65.8167,87.9833,59.07,88,85,8.23,RU,overcast clouds,2022-06-13 16:38:35
348,Cartagena,10.3997,-75.5144,87.42,66,40,4.61,CO,scattered clouds,2022-06-13 16:38:20
349,Pochutla,15.7432,-96.4661,77.83,76,99,2.28,MX,overcast clouds,2022-06-13 16:38:35
350,La Roche-En-Ardenne,50.1836,5.5755,68.61,59,83,7.09,BE,broken clouds,2022-06-13 16:38:35
351,Batagay-Alyta,67.8006,130.4114,51.33,76,99,3.83,RU,light rain,2022-06-13 16:38:35
352,La Macarena,2.1837,-73.7849,69.73,83,100,4.05,CO,overcast clouds,2022-06-13 16:38:36
353,Belyy Yar,53.6039,91.3903,69.69,76,0,4.47,RU,clear sky,2022-06-13 16:38:36
354,Ghanzi,-21.5667,21.7833,60.89,36,0,7.58,BW,clear sky,2022-06-13 16:38:36
355,Mecca,21.4267,39.8261,93.88,29,3,10.13,SA,clear sky,2022-06-13 16:38:37
356,Hay River,60.8156,-115.7999,67.96,48,40,2.3,CA,scattered clouds,2022-06-13 16:38:37
357,Conceicao Do Araguaia,-8.2578,-49.2647,90.54,45,44,3.91,BR,scattered clouds,2022-06-13 16:38:37
358,Plettenberg Bay,-34.0527,23.3716,68.14,43,100,5.95,ZA,overcast clouds,2022-06-13 16:38:37
359,Xuddur,4.1213,43.8894,78.93,56,73,17.18,SO,broken clouds,2022-06-13 16:38:38
360,Cap Malheureux,-19.9842,57.6142,74.46,67,39,10.0,MU,scattered clouds,2022-06-13 16:38:38
361,Grindavik,63.8424,-22.4338,53.55,100,100,24.16,IS,mist,2022-06-13 16:38:38
362,Tilichiki,60.4667,166.1,41.52,78,65,4.97,RU,broken clouds,2022-06-13 16:38:39
363,Kasongo-Lunda,-6.4667,16.8167,78.17,39,100,1.77,CD,overcast clouds,2022-06-13 16:39:39
364,Bubaque,11.2833,-15.8333,80.13,82,19,14.14,GW,few clouds,2022-06-13 16:39:39
365,Vila,42.0304,-8.1588,83.7,55,37,6.13,PT,scattered clouds,2022-06-13 16:39:40
366,Peleduy,59.6289,112.7406,51.8,65,56,2.53,RU,broken clouds,2022-06-13 16:39:40
367,Kawalu,-7.3817,108.2082,72.68,96,100,1.41,ID,light rain,2022-06-13 16:39:40
368,Tanhacu,-14.0214,-41.2481,91.2,31,11,7.34,BR,few clouds,2022-06-13 16:39:40
369,Arbuzynka,47.9097,31.3196,75.6,48,2,7.43,UA,clear sky,2022-06-13 16:39:41
370,Joshimath,30.5667,79.5667,71.06,55,52,1.95,IN,broken clouds,2022-06-13 16:39:41
371,Jaru,-10.4389,-62.4664,80.4,52,57,4.56,BR,broken clouds,2022-06-13 16:39:41
372,Flinders,-34.5833,150.8552,46.06,80,0,1.01,AU,clear sky,2022-06-13 16:39:42
373,Kizukuri,40.8061,140.3861,55.11,90,3,6.38,JP,clear sky,2022-06-13 16:39:15
374,Mtambile,-5.3833,39.7,78.15,76,13,16.04,TZ,few clouds,2022-06-13 16:39:42
375,Cidreira,-30.1811,-50.2056,59.58,73,68,8.9,BR,broken clouds,2022-06-13 16:39:42
376,Pacifica,37.6138,-122.4869,69.64,68,20,16.11,US,few clouds,2022-06-13 16:34:53
377,Trinidad,-14.8333,-64.9,73.38,33,0,6.91,BO,clear sky,2022-06-13 16:39:43
378,Coahuayana,18.7333,-103.6833,91.36,44,81,4.14,MX,broken clouds,2022-06-13 16:39:43
379,Schattdorf,46.8655,8.6547,75.24,81,66,4.65,CH,broken clouds,2022-06-13 16:39:43
380,Blythe,33.6103,-114.5964,95.04,21,0,9.22,US,clear sky,2022-06-13 16:39:44
381,Alofi,-19.0595,-169.9187,73.29,94,40,3.44,NU,scattered clouds,2022-06-13 16:39:44
382,Talara,-4.5772,-81.2719,68.76,77,100,18.41,PE,overcast clouds,2022-06-13 16:39:44
383,Kieta,-6.2167,155.6333,78.01,82,38,4.97,PG,scattered clouds,2022-06-13 16:39:44
384,Samarai,-10.6167,150.6667,81.57,75,70,12.95,PG,broken clouds,2022-06-13 16:39:45
385,Kumylzhenskaya,49.8809,42.5898,71.17,56,31,8.21,RU,scattered clouds,2022-06-13 16:39:45
386,Vysokogornyy,50.1167,139.15,53.49,90,83,2.44,RU,broken clouds,2022-06-13 16:39:45
387,Bhor,18.1667,73.85,75.25,80,18,7.81,IN,few clouds,2022-06-13 16:39:46
388,Havre-Saint-Pierre,50.2334,-63.5986,64.76,52,40,14.97,CA,scattered clouds,2022-06-13 16:39:46
389,Abha,18.2164,42.5053,77.25,41,0,10.36,SA,clear sky,2022-06-13 16:39:46
390,Carutapera,-1.195,-46.02,86.11,61,13,7.92,BR,few clouds,2022-06-13 16:39:46
391,Buritizeiro,-17.3511,-44.9622,87.31,23,90,4.79,BR,overcast clouds,2022-06-13 16:39:47
392,Leningradskiy,69.3833,178.4167,32.77,87,100,8.61,RU,overcast clouds,2022-06-13 16:39:47
393,Cabo Rojo,18.0866,-67.1457,90.05,68,16,5.01,PR,few clouds,2022-06-13 16:39:47
394,Bathsheba,13.2167,-59.5167,88.41,66,40,19.57,BB,scattered clouds,2022-06-13 16:39:48
395,Doka,13.5167,35.7667,82.69,50,100,18.9,SD,overcast clouds,2022-06-13 16:39:48
396,Belmonte,-15.8631,-38.8828,79.07,70,32,9.93,BR,scattered clouds,2022-06-13 16:39:48
397,Roswell,34.0232,-84.3616,92.57,67,75,9.22,US,broken clouds,2022-06-13 16:39:48
398,Glendive,47.1053,-104.7125,67.75,83,75,5.75,US,broken clouds,2022-06-13 16:39:49
399,Rosarito,32.3333,-117.0333,70.41,76,45,9.73,MX,scattered clouds,2022-06-13 16:39:49
400,Savalou,7.9281,1.9756,88.92,53,57,4.76,BJ,broken clouds,2022-06-13 16:39:49
401,Urumqi,43.801,87.6005,85.15,29,0,6.71,CN,clear sky,2022-06-13 16:39:50
402,Dungarvan,52.0881,-7.6253,59.56,71,83,3.0,IE,broken clouds,2022-06-13 16:39:50
403,Jackson,42.4165,-122.8345,54.16,67,75,5.75,US,broken clouds,2022-06-13 16:39:50
404,Solton,52.8429,86.4787,62.4,91,75,3.47,RU,broken clouds,2022-06-13 16:39:51
405,Havelock,34.8791,-76.9013,91.35,80,17,5.01,US,few clouds,2022-06-13 16:39:51
406,Oussouye,12.485,-16.5469,93.38,61,45,13.8,SN,scattered clouds,2022-06-13 16:39:51
407,Daman,20.4167,72.85,83.41,78,20,14.32,IN,few clouds,2022-06-13 16:39:52
408,Yumen,40.2833,97.2,70.48,9,0,12.21,CN,clear sky,2022-06-13 16:39:52
409,Kyabe,9.4515,18.9449,78.58,69,100,4.79,TD,overcast clouds,2022-06-13 16:39:52
410,Belaya Gora,68.5333,146.4167,56.34,49,42,15.21,RU,scattered clouds,2022-06-13 16:39:52
411,Beringovskiy,63.05,179.3167,38.84,91,79,3.11,RU,broken clouds,2022-06-13 16:40:53
412,Chuy,-33.6971,-53.4616,60.87,66,3,4.76,UY,clear sky,2022-06-13 16:40:53
413,Bethel,41.3712,-73.414,84.15,62,0,6.91,US,clear sky,2022-06-13 16:40:53
414,Natchitoches,31.7668,-93.1335,90.45,39,0,9.1,US,clear sky,2022-06-13 16:40:54
415,Mayumba,-3.432,10.6554,76.12,81,38,7.29,GA,scattered clouds,2022-06-13 16:40:54
416,Yarada,17.65,83.2667,84.52,70,20,5.75,IN,haze,2022-06-13 16:40:54
417,Hindupur,13.8289,77.4933,80.96,62,100,13.98,IN,overcast clouds,2022-06-13 16:40:55
418,Marang,5.2056,103.2059,78.71,80,94,4.61,MY,overcast clouds,2022-06-13 16:37:30
419,Mudhol,16.35,75.2833,79.48,65,95,13.85,IN,overcast clouds,2022-06-13 16:40:55
420,Athabasca,54.7169,-113.2854,64.81,54,99,8.48,CA,overcast clouds,2022-06-13 16:37:10
421,Kloulklubed,7.0419,134.2556,75.7,75,100,14.32,PW,overcast clouds,2022-06-13 16:40:55
422,Sudak,44.85,34.9667,75.13,59,31,9.19,UA,scattered clouds,2022-06-13 16:40:56
423,Asau,46.4333,26.4,76.28,80,24,1.61,RO,few clouds,2022-06-13 16:40:56
424,Clyde River,70.4692,-68.5914,35.83,80,100,4.61,CA,overcast clouds,2022-06-13 16:40:56
425,Beinamar,8.6698,15.3813,76.93,74,100,1.66,TD,overcast clouds,2022-06-13 16:40:57
426,Saint George,37.1041,-113.5841,87.64,26,20,11.01,US,few clouds,2022-06-13 16:40:57
427,Roma,43.2128,-75.4557,73.72,57,20,10.36,US,few clouds,2022-06-13 16:39:14
428,Anqing,30.5092,117.0506,71.76,89,100,4.61,CN,overcast clouds,2022-06-13 16:38:17
429,Richards Bay,-28.783,32.0377,67.78,43,7,10.76,ZA,clear sky,2022-06-13 16:40:57
430,Jalu,29.0331,21.5482,87.96,27,1,14.94,LY,clear sky,2022-06-13 16:40:58
431,Klamath Falls,42.2249,-121.7817,47.86,72,75,9.22,US,broken clouds,2022-06-13 16:38:38
432,Rochester,43.1548,-77.6156,74.12,58,40,4.61,US,scattered clouds,2022-06-13 16:40:16
433,Wewak,-3.5534,143.6268,79.86,83,11,8.43,PG,few clouds,2022-06-13 16:40:58
434,Banamba,13.55,-7.45,99.52,24,63,11.27,ML,broken clouds,2022-06-13 16:40:59
435,Clearwater,27.9659,-82.8001,91.17,69,40,10.36,US,scattered clouds,2022-06-13 16:36:27
436,Mananjary,-21.2167,48.3333,68.23,81,38,3.83,MG,scattered clouds,2022-06-13 16:40:59
437,Soroti,1.7146,33.6111,73.36,57,73,4.56,UG,broken clouds,2022-06-13 16:40:59
438,Saint-Georges,12.0564,-61.7485,80.28,83,75,27.63,GD,broken clouds,2022-06-13 16:41:00
439,Sistranda,63.7256,8.834,51.76,92,100,23.51,NO,overcast clouds,2022-06-13 16:41:00
440,Matai,-8.3,31.5167,58.77,66,78,1.19,TZ,broken clouds,2022-06-13 16:41:00
441,Finnsnes,69.2296,17.9811,57.81,77,100,4.97,NO,overcast clouds,2022-06-13 16:41:01
442,Bani Walid,31.7566,13.9942,85.53,23,0,16.84,LY,clear sky,2022-06-13 16:41:01
443,Oneonta,42.4529,-75.0638,78.3,69,73,9.19,US,broken clouds,2022-06-13 16:38:48
444,Hanna,51.6334,-111.9018,58.86,78,90,5.01,CA,overcast clouds,2022-06-13 16:39:58
445,Berlevag,70.8578,29.0864,44.6,81,75,16.11,NO,broken clouds,2022-06-13 16:41:01
446,Sorland,67.667,12.6934,49.86,94,100,21.16,NO,light rain,2022-06-13 16:41:02
447,Ust-Kuyga,70.0167,135.6,61.72,51,25,6.24,RU,scattered clouds,2022-06-13 16:41:02
448,Rafaela,-31.2503,-61.4867,66.97,21,1,4.0,AR,clear sky,2022-06-13 16:41:02
449,Zhanaozen,43.3,52.8,82.53,29,98,1.83,KZ,overcast clouds,2022-06-13 16:41:03
450,Sakaiminato,35.55,133.2333,66.18,88,75,14.97,JP,light rain,2022-06-13 16:41:03
451,Olafsvik,64.8945,-23.7142,49.93,95,100,17.56,IS,light rain,2022-06-13 16:41:03
452,Sao Joao Da Barra,-21.6403,-41.0511,75.29,51,100,15.08,BR,overcast clouds,2022-06-13 16:37:02
453,Genhe,50.7833,121.5167,52.77,98,88,1.72,CN,overcast clouds,2022-06-13 16:41:03
454,Mount Isa,-20.7333,139.5,44.37,61,32,1.14,AU,scattered clouds,2022-06-13 16:41:04
455,Markala,13.7021,-6.0659,100.47,24,6,8.5,ML,clear sky,2022-06-13 16:41:04
456,Oudtshoorn,-33.5907,22.2014,59.36,38,100,11.25,ZA,overcast clouds,2022-06-13 16:42:04
457,Ponta Do Sol,32.6667,-17.1,75.7,60,36,4.41,PT,scattered clouds,2022-06-13 16:42:05
458,Dongsheng,39.8161,109.9776,61.92,24,30,6.89,CN,scattered clouds,2022-06-13 16:42:05
459,Oranjestad,12.524,-70.027,85.95,66,40,26.46,AW,scattered clouds,2022-06-13 16:42:05
460,Xining,36.6167,101.7667,54.88,39,0,0.13,CN,clear sky,2022-06-13 16:42:06
461,Acari,-15.4311,-74.6158,75.18,48,30,7.34,PE,scattered clouds,2022-06-13 16:42:06
462,Tulancingo,20.0833,-98.3667,71.65,44,18,8.05,MX,few clouds,2022-06-13 16:38:31
463,Acajutla,13.5928,-89.8275,82.54,76,37,6.33,SV,scattered clouds,2022-06-13 16:42:06
464,Basco,20.4487,121.9702,85.01,74,100,10.31,PH,overcast clouds,2022-06-13 16:42:07
465,Nador,35.174,-2.9287,80.67,73,20,4.61,MA,few clouds,2022-06-13 16:42:07
466,Erdemli,36.605,34.3084,75.42,80,26,11.81,TR,scattered clouds,2022-06-13 16:42:07
467,Djambala,-2.5447,14.7533,78.48,52,100,3.67,CG,overcast clouds,2022-06-13 16:42:07
468,Koratla,18.8167,78.7167,86.74,56,92,2.42,IN,overcast clouds,2022-06-13 16:42:08
469,Deulgaon Raja,20.0167,76.0333,85.03,56,99,11.48,IN,overcast clouds,2022-06-13 16:42:08
470,Central Point,42.376,-122.9164,54.3,68,75,5.75,US,broken clouds,2022-06-13 16:42:09
471,Kuopio,62.8924,27.677,64.35,72,0,6.91,FI,clear sky,2022-06-13 16:42:09
472,Shirokiy,49.758,129.523,61.74,87,100,4.43,RU,overcast clouds,2022-06-13 16:42:09
473,Hasaki,35.7333,140.8333,63.0,73,100,13.73,JP,overcast clouds,2022-06-13 16:42:10
474,Sabha,27.0377,14.4283,91.98,18,0,9.17,LY,clear sky,2022-06-13 16:37:49
475,High Level,58.5169,-117.136,64.51,55,40,4.61,CA,scattered clouds,2022-06-13 16:42:10
476,Cocotitlan,19.2333,-98.8667,70.2,39,71,1.59,MX,broken clouds,2022-06-13 16:42:10
477,Irricana,51.3237,-113.6048,58.37,70,100,13.42,CA,overcast clouds,2022-06-13 16:42:11
478,Warmbad,-28.45,18.7333,62.37,29,100,8.21,NA,overcast clouds,2022-06-13 16:42:11
479,Petatlan,17.5167,-101.2667,89.47,54,73,5.17,MX,broken clouds,2022-06-13 16:42:12
480,Shaki,41.0833,47.1667,70.34,61,92,5.19,AZ,overcast clouds,2022-06-13 16:42:13
481,Tocopilla,-22.092,-70.1979,65.57,67,11,5.26,CL,few clouds,2022-06-13 16:42:14
482,Ayan,56.45,138.1667,41.65,97,100,5.73,RU,overcast clouds,2022-06-13 16:42:14
483,Byron Bay,-28.65,153.6167,51.94,88,68,6.2,AU,broken clouds,2022-06-13 16:41:34
484,Sale,34.0389,-6.8166,84.63,78,40,12.66,MA,scattered clouds,2022-06-13 16:42:15
485,Itaobim,-16.5667,-41.8333,91.02,32,50,2.3,BR,scattered clouds,2022-06-13 16:42:15
486,Makakilo City,21.3469,-158.0858,77.32,73,75,11.5,US,broken clouds,2022-06-13 16:42:15
487,Shingu,33.7333,135.9833,64.81,96,100,7.36,JP,light rain,2022-06-13 16:39:14
488,Kismayo,-0.3582,42.5454,78.31,79,20,15.28,SO,few clouds,2022-06-13 16:42:16
489,Nouakchott,18.0858,-15.9785,78.73,80,25,15.57,MR,scattered clouds,2022-06-13 16:42:16
490,Mae Sot,16.7167,98.5667,77.41,98,100,1.63,TH,overcast clouds,2022-06-13 16:42:16
491,Shenandoah,30.4013,-91.0009,93.15,62,16,1.99,US,few clouds,2022-06-13 16:42:17
492,Sakakah,29.9697,40.2064,94.57,22,0,8.16,SA,clear sky,2022-06-13 16:42:17
493,Ismailia,30.6043,32.2723,84.27,45,0,10.36,EG,clear sky,2022-06-13 16:42:17
494,Usinsk,65.9939,57.5281,56.23,37,27,6.67,RU,scattered clouds,2022-06-13 16:42:17
495,Urk,52.6625,5.6014,64.96,61,17,12.88,NL,few clouds,2022-06-13 16:43:18
496,Bolshaya Izhora,59.938,29.5772,66.31,86,75,6.69,RU,broken clouds,2022-06-13 16:43:18
497,Tongliao,43.6125,122.2653,62.28,85,100,13.53,CN,overcast clouds,2022-06-13 16:43:18
498,Maumere,-8.6199,122.2111,77.85,81,100,7.94,ID,overcast clouds,2022-06-13 16:43:19
499,Kedrovyy,56.1667,91.8167,59.41,88,68,5.3,RU,broken clouds,2022-06-13 16:43:20
500,Rudnogorsk,57.2639,103.7519,56.08,95,96,2.89,RU,overcast clouds,2022-06-13 16:43:21
501,Yarmouth,41.7057,-70.2286,81.61,80,75,5.75,US,broken clouds,2022-06-13 16:43:22
502,Cascais,38.6979,-9.4215,87.62,61,0,10.36,PT,clear sky,2022-06-13 16:43:22
503,Zelenoborskiy,66.845,32.3622,58.77,67,87,3.29,RU,overcast clouds,2022-06-13 16:43:22
504,Half Moon Bay,37.4636,-122.4286,70.83,59,0,16.11,US,clear sky,2022-06-13 16:43:23
505,Ushtobe,45.2514,77.9838,70.72,78,100,13.27,KZ,moderate rain,2022-06-13 16:43:23
506,Raton,36.9034,-104.4391,87.06,20,0,16.11,US,clear sky,2022-06-13 16:42:22
507,Fairbanks,64.8378,-147.7164,62.22,68,75,4.61,US,haze,2022-06-13 16:43:23
508,Gambela,8.25,34.5833,71.6,95,54,2.66,ET,moderate rain,2022-06-13 16:43:24
509,Chivay,-15.6383,-71.6011,55.81,10,4,1.77,PE,clear sky,2022-06-13 16:43:24
510,Tura,25.5198,90.2201,75.0,96,96,7.02,IN,overcast clouds,2022-06-13 16:43:24
511,The Valley,18.217,-63.0578,87.66,66,40,18.41,AI,scattered clouds,2022-06-13 16:43:24
512,Igarka,67.4667,86.5833,59.36,81,98,7.52,RU,light rain,2022-06-13 16:43:25
513,Fort Nelson,58.8053,-122.7002,58.59,41,40,4.61,CA,scattered clouds,2022-06-13 16:43:07
514,San Francisco,37.7749,-122.4194,69.87,64,20,16.11,US,few clouds,2022-06-13 16:38:37
515,Petropavlovsk-Kamchatskiy,53.0452,158.6483,41.59,93,0,2.24,RU,clear sky,2022-06-13 16:43:25
516,Adolfo Lopez Mateos,28.4667,-107.3,83.93,26,46,7.72,MX,scattered clouds,2022-06-13 16:43:26
517,Salinopolis,-0.6136,-47.3561,84.54,66,7,11.48,BR,clear sky,2022-06-13 16:43:26
518,Northport,33.229,-87.5772,96.13,59,20,4.61,US,few clouds,2022-06-13 16:42:03
519,Athens,37.9795,23.7162,86.23,37,20,13.8,GR,few clouds,2022-06-13 16:41:39
520,Juneau,58.3019,-134.4197,50.85,96,100,3.44,US,moderate rain,2022-06-13 16:43:27
521,Noumea,-22.2763,166.4572,73.99,99,100,8.66,NC,overcast clouds,2022-06-13 16:40:53
522,Raichur,16.2,77.3667,85.96,50,100,19.17,IN,overcast clouds,2022-06-13 16:43:27
523,Aksu,41.1231,80.2644,85.62,10,66,9.62,CN,broken clouds,2022-06-13 16:43:27
524,Luoyang,34.6836,112.4536,76.46,35,20,5.32,CN,few clouds,2022-06-13 16:43:27
525,Harper,4.375,-7.7169,80.85,64,88,7.36,LR,overcast clouds,2022-06-13 16:43:28
526,Tshane,-24.0196,21.8684,62.85,29,3,8.3,BW,clear sky,2022-06-13 16:43:28
527,Chapais,49.7834,-74.8492,60.58,71,91,6.15,CA,overcast clouds,2022-06-13 16:43:28
528,Bafq,31.6128,55.4107,98.33,10,67,5.61,IR,broken clouds,2022-06-13 16:43:29
529,Suraabad,40.8192,49.4687,70.29,79,100,14.34,AZ,light rain,2022-06-13 16:43:29
530,Eureka,40.8021,-124.1637,60.21,69,15,8.99,US,few clouds,2022-06-13 16:43:29
531,Airai,-8.9266,125.4092,57.97,93,83,3.31,TL,broken clouds,2022-06-13 16:43:30
532,Anloga,5.7947,0.8973,80.46,76,100,15.41,GH,overcast clouds,2022-06-13 16:43:30
533,Greenville,35.6127,-77.3663,92.14,65,0,4.61,US,clear sky,2022-06-13 16:41:21
534,Flagstaff,35.1981,-111.6513,82.09,17,0,20.71,US,clear sky,2022-06-13 16:43:25
535,Inhambane,-23.865,35.3833,69.26,79,0,8.48,MZ,clear sky,2022-06-13 16:43:30
536,Camacha,33.0833,-16.3333,67.42,64,75,6.91,PT,broken clouds,2022-06-13 16:43:31
537,Gat,31.61,34.7642,77.81,100,0,8.55,IL,clear sky,2022-06-13 16:43:31
538,Olinda,-8.0089,-34.8553,82.13,65,40,8.05,BR,scattered clouds,2022-06-13 16:44:31
539,Andenes,69.3143,16.1194,48.18,87,75,10.36,NO,broken clouds,2022-06-13 16:44:32
540,Erzin,36.9559,36.2,70.05,89,74,6.8,TR,broken clouds,2022-06-13 16:44:32
541,Honningsvag,70.9821,25.9704,42.55,87,100,11.5,NO,overcast clouds,2022-06-13 16:44:32
542,Athni,16.7333,75.0667,78.71,66,92,14.41,IN,overcast clouds,2022-06-13 16:44:33
543,Mollendo,-17.0231,-72.0147,65.89,69,47,9.17,PE,scattered clouds,2022-06-13 16:44:33
544,Murray Bridge,-35.1167,139.2667,52.34,79,40,8.55,AU,scattered clouds,2022-06-13 16:44:33
545,General Roca,-39.0333,-67.5833,61.3,19,100,4.09,AR,overcast clouds,2022-06-13 16:44:33
546,Victor Harbor,-35.5667,138.6167,52.68,69,57,10.92,AU,broken clouds,2022-06-13 16:44:34
547,Tanabe,33.7333,135.3667,65.93,83,100,1.99,JP,light rain,2022-06-13 16:44:34
548,Winnemucca,40.973,-117.7357,51.85,54,0,12.66,US,clear sky,2022-06-13 16:41:24
549,Los Llanos De Aridane,28.6585,-17.9182,72.12,75,75,5.99,ES,broken clouds,2022-06-13 16:44:34
550,Port Macquarie,-31.4333,152.9167,42.89,87,7,4.05,AU,clear sky,2022-06-13 16:44:35
551,Mlonggo,-6.5333,110.7,77.85,83,100,3.98,ID,overcast clouds,2022-06-13 16:44:35
552,Mabaruma,8.2,-59.7833,81.91,74,100,1.32,GY,overcast clouds,2022-06-13 16:44:35
553,Imphal,24.8167,93.95,70.39,96,84,0.31,IN,broken clouds,2022-06-13 16:44:36
554,Weston,26.1004,-80.3998,93.02,66,75,8.05,US,broken clouds,2022-06-13 16:44:36
555,Gaziantep,37.0594,37.3825,71.53,53,0,14.97,TR,clear sky,2022-06-13 16:44:36
556,Oxilithos,38.5833,24.1167,74.52,60,10,9.6,GR,clear sky,2022-06-13 16:44:37
557,Marquette,46.5333,-87.6335,54.84,89,100,5.99,US,moderate rain,2022-06-13 16:44:37
558,Longonjo,-12.9067,15.2533,64.85,32,9,4.09,AO,clear sky,2022-06-13 16:44:37
559,Papara,-3.9839,-38.7273,84.6,61,48,6.87,BR,scattered clouds,2022-06-13 16:44:37
560,Liuzhou,24.3126,109.3892,72.05,96,100,3.56,CN,overcast clouds,2022-06-13 16:44:38
561,Paranhos,-23.8928,-55.4311,62.96,40,0,3.47,BR,clear sky,2022-06-13 16:44:38
562,Baley,51.6,116.6333,49.96,86,53,1.74,RU,broken clouds,2022-06-13 16:44:38
563,Yuanping,38.7153,112.7575,59.14,56,3,3.22,CN,clear sky,2022-06-13 16:44:39
564,Maxixe,-23.8597,35.3472,68.11,81,0,7.47,MZ,clear sky,2022-06-13 16:44:39
565,Baykit,61.67,96.37,56.5,91,90,1.19,RU,moderate rain,2022-06-13 16:44:39
566,Durusu,41.3053,28.6767,75.38,84,2,5.99,TR,clear sky,2022-06-13 16:44:40
567,Honiara,-9.4333,159.95,76.39,86,100,5.32,SB,light rain,2022-06-13 16:44:40
568,Susanville,40.4163,-120.653,57.67,58,75,4.0,US,broken clouds,2022-06-13 16:44:40
569,Padang,-0.9492,100.3543,76.06,88,100,6.02,ID,light rain,2022-06-13 16:42:22
570,Tooele,40.5308,-112.2983,51.66,87,100,8.05,US,light rain,2022-06-13 16:44:41
571,Gubkinskiy,64.434,76.5026,64.27,66,88,2.04,RU,overcast clouds,2022-06-13 16:44:41
572,Bintulu,3.1667,113.0333,75.61,94,20,5.01,MY,few clouds,2022-06-13 16:44:41
573,Nchelenge,-9.3451,28.734,68.38,60,26,4.34,ZM,scattered clouds,2022-06-13 16:44:41
574,Egvekinot,66.3167,-179.1667,32.29,64,51,9.01,RU,broken clouds,2022-06-13 16:44:42
575,Melfi,40.9965,15.6514,81.16,32,0,9.73,IT,clear sky,2022-06-13 16:44:42
576,Miracema Do Tocantins,-9.5618,-48.3967,92.8,38,20,0.92,BR,few clouds,2022-06-13 16:44:42
577,Alexandria,31.2156,29.9553,79.34,65,0,12.66,EG,clear sky,2022-06-13 16:42:57
578,Bassar,9.25,0.7833,86.05,56,36,4.05,TG,scattered clouds,2022-06-13 16:44:43
579,Burnie,-41.0667,145.9167,43.95,84,33,7.99,AU,scattered clouds,2022-06-13 16:44:43
580,Reconquista,-29.15,-59.65,64.42,35,0,9.44,AR,clear sky,2022-06-13 16:44:43
581,Fort-Shevchenko,44.5086,50.263,77.72,60,99,20.87,KZ,overcast clouds,2022-06-13 16:44:43
582,Santa Helena,-2.2311,-45.3,92.43,42,23,3.89,BR,few clouds,2022-06-13 16:44:44
583,Zhanakorgan,43.9098,67.2495,85.05,17,81,8.32,KZ,broken clouds,2022-06-13 16:45:44
584,Buraydah,26.326,43.975,104.45,8,2,12.59,SA,clear sky,2022-06-13 16:45:14
585,Gondanglegi,-7.7479,112.0132,74.32,94,98,6.64,ID,light rain,2022-06-13 16:45:45
586,Valdepenas,38.7621,-3.3848,102.85,11,50,12.86,ES,scattered clouds,2022-06-13 16:45:45
587,Marystown,47.1666,-55.1483,53.73,78,100,11.16,CA,overcast clouds,2022-06-13 16:45:45
588,Chake Chake,-5.2459,39.7666,76.77,77,33,12.06,TZ,scattered clouds,2022-06-13 16:45:45
589,Ankazoabo,-22.2833,44.5167,66.58,56,0,6.64,MG,clear sky,2022-06-13 16:45:46
590,Buala,-8.145,159.5921,78.98,83,100,7.07,SB,light rain,2022-06-13 16:45:46
591,Semme,46.1963,1.5007,79.21,35,5,9.66,FR,clear sky,2022-06-13 16:45:46
592,San Lawrenz,36.0553,14.204,81.81,79,0,7.76,MT,clear sky,2022-06-13 16:45:47
593,Brigham City,41.5102,-112.0155,55.42,78,100,3.0,US,overcast clouds,2022-06-13 16:45:47
594,Impfondo,1.6381,18.0667,72.36,91,100,2.59,CG,overcast clouds,2022-06-13 16:45:47
595,Mana,5.6592,-53.7767,83.03,72,95,6.33,GF,overcast clouds,2022-06-13 16:45:48
596,Feijo,-8.1642,-70.3536,78.75,42,32,4.5,BR,scattered clouds,2022-06-13 16:45:48
597,Plaeng Yao,13.5847,101.284,85.15,99,94,6.85,TH,overcast clouds,2022-06-13 16:45:48
598,Dalen,52.6992,6.7556,65.93,63,93,11.99,NL,overcast clouds,2022-06-13 16:45:48
599,Banatski Karlovac,45.0472,21.0161,85.75,41,50,9.31,RS,scattered clouds,2022-06-13 16:45:49
600,Neiafu,-18.65,-173.9833,75.88,94,20,0.0,TO,few clouds,2022-06-13 16:45:49
601,Gizo,-8.103,156.8419,81.34,71,87,4.25,SB,overcast clouds,2022-06-13 16:45:49
602,Mchinji,-13.7984,32.8802,59.34,48,3,3.22,MW,clear sky,2022-06-13 16:45:50
603,Smiltene,57.4244,25.9016,66.54,68,82,3.11,LV,broken clouds,2022-06-13 16:45:50
604,Flin Flon,54.7682,-101.865,62.44,72,75,6.91,CA,broken clouds,2022-06-13 16:43:07
605,Iberia,29.9502,-91.7507,92.08,62,40,5.75,US,scattered clouds,2022-06-13 16:45:50
606,Mizan Teferi,6.9833,35.5833,61.56,96,85,2.1,ET,overcast clouds,2022-06-13 16:45:51
607,Ponnani,10.767,75.9252,79.92,85,82,6.04,IN,broken clouds,2022-06-13 16:45:51
608,Maragogi,-9.0122,-35.2225,80.42,72,5,6.31,BR,clear sky,2022-06-13 16:45:51
609,Zapolyarnyy,69.4154,30.8136,52.88,60,96,8.99,RU,overcast clouds,2022-06-13 16:45:51
610,Gunnedah,-30.9833,150.25,40.75,85,0,3.27,AU,clear sky,2022-06-13 16:45:52
611,Kaabong,3.4836,34.1492,68.07,58,15,7.18,UG,few clouds,2022-06-13 16:45:52
612,Haradok,55.4624,29.9816,69.91,69,56,5.64,BY,broken clouds,2022-06-13 16:45:53
613,Charters Towers,-20.1,146.2667,49.87,64,0,4.43,AU,clear sky,2022-06-13 16:45:53
614,Lavrentiya,65.5833,-171.0,36.55,67,93,9.98,RU,overcast clouds,2022-06-13 16:45:53
615,Moa,20.6569,-74.9403,86.86,69,76,11.41,CU,broken clouds,2022-06-13 16:45:53
616,Quirinopolis,-18.4483,-50.4517,75.88,16,39,6.71,BR,scattered clouds,2022-06-13 16:45:54
617,Abrau-Dyurso,44.69,37.59,81.86,59,23,7.52,RU,few clouds,2022-06-13 16:45:54
618,Camocim,-2.9022,-40.8411,83.03,74,25,7.7,BR,scattered clouds,2022-06-13 16:45:54
619,Vestmannaeyjar,63.4427,-20.2734,50.99,93,100,16.11,IS,drizzle,2022-06-13 16:45:55
620,Pacific Grove,36.6177,-121.9166,65.34,77,0,15.01,US,clear sky,2022-06-13 16:45:55
621,Ahipara,-35.1667,173.1667,57.09,71,39,15.88,NZ,scattered clouds,2022-06-13 16:45:55
622,Malakal,9.5334,31.6605,86.94,45,93,5.06,SS,light rain,2022-06-13 16:45:55
623,Nikolsk,53.7189,46.0712,60.82,73,23,1.61,RU,few clouds,2022-06-13 16:45:57
624,Aleksandrov Gay,50.147,48.5704,67.35,51,6,6.69,RU,clear sky,2022-06-13 16:45:58
625,Mumford,5.2618,-0.759,79.65,74,44,12.77,GH,scattered clouds,2022-06-13 16:45:58
626,Morristown,36.214,-83.2949,87.85,12,0,5.75,US,clear sky,2022-06-13 16:45:01
627,La Rioja,42.25,-2.5,87.58,39,0,5.06,ES,clear sky,2022-06-13 16:46:59
628,Taldan,53.6667,124.8,53.83,98,82,3.06,RU,broken clouds,2022-06-13 16:46:59
629,Tevaitoa,-16.7833,-151.5,79.38,70,18,21.74,PF,few clouds,2022-06-13 16:46:59
630,Magaria,12.9983,8.9099,102.85,19,93,9.24,NE,overcast clouds,2022-06-13 16:47:00
631,Raga,8.4596,25.678,72.91,86,77,10.65,SS,light rain,2022-06-13 16:47:00
632,Hobbs,32.7026,-103.136,93.2,25,0,18.41,US,clear sky,2022-06-13 16:47:00
633,Huaihua,27.5494,109.9592,67.33,97,99,2.64,CN,overcast clouds,2022-06-13 16:47:01
634,San Carlos,9.6612,-68.5827,82.58,67,93,4.05,VE,overcast clouds,2022-06-13 16:47:01
635,Kamaishi,39.2667,141.8833,51.98,84,45,7.85,JP,scattered clouds,2022-06-13 16:47:01
636,Manavalakurichi,8.1333,77.3,80.92,83,100,14.05,IN,overcast clouds,2022-06-13 16:47:01
637,Tete,-16.1564,33.5867,70.72,59,46,3.98,MZ,scattered clouds,2022-06-13 16:47:02
638,Koumac,-20.5667,164.2833,72.95,91,100,10.11,NC,overcast clouds,2022-06-13 16:47:02
639,Cabedelo,-6.9811,-34.8339,84.87,74,22,9.71,BR,few clouds,2022-06-13 16:47:02
640,Svetlogorsk,52.6333,29.7333,67.41,68,46,4.85,BY,scattered clouds,2022-06-13 16:47:03
641,Nishihara,26.1842,127.7558,80.65,97,75,19.57,JP,light intensity shower rain,2022-06-13 16:47:03
642,Mahibadhoo,3.7833,72.9667,83.28,76,94,7.81,MV,overcast clouds,2022-06-13 16:47:03
643,Magistralnyy,56.1725,107.4458,56.23,93,94,2.86,RU,overcast clouds,2022-06-13 16:42:05
644,Mae Hong Son,19.3003,97.9685,75.07,93,100,1.74,TH,overcast clouds,2022-06-13 16:47:04
645,Makushino,55.2103,67.2442,54.54,87,41,8.88,RU,scattered clouds,2022-06-13 16:47:04
646,Dunedin,-45.8742,170.5036,49.8,48,32,4.0,NZ,scattered clouds,2022-06-13 16:47:04
647,Omboue,-1.5746,9.2618,77.07,80,58,9.31,GA,broken clouds,2022-06-13 16:47:05
648,Khorinsk,52.1657,109.7726,57.27,58,70,1.39,RU,broken clouds,2022-06-13 16:47:06
649,Kaa-Khem,51.6833,94.7333,71.15,56,99,5.41,RU,overcast clouds,2022-06-13 16:47:06
650,Severnyy,50.677,36.5532,77.04,47,0,6.71,RU,clear sky,2022-06-13 16:47:06
651,Berbera,10.4396,45.0143,94.32,39,69,5.97,SO,broken clouds,2022-06-13 16:47:07
652,Katima Mulilo,-17.5,24.2667,61.63,31,6,2.62,NA,clear sky,2022-06-13 16:47:07
653,Hovd,48.0056,91.6419,73.04,38,85,3.31,MN,overcast clouds,2022-06-13 16:47:07
654,Teguise,29.0605,-13.564,73.62,73,20,10.36,ES,few clouds,2022-06-13 16:47:08
655,Bonavista,48.6499,-53.1147,45.95,75,65,9.04,CA,broken clouds,2022-06-13 16:47:08
656,Funadhoo,6.15,73.2667,83.25,76,28,10.89,MV,scattered clouds,2022-06-13 16:47:08
657,Aktash,50.3,87.7333,47.97,83,100,4.16,RU,overcast clouds,2022-06-13 16:47:09
658,Dakar,14.6937,-17.4441,86.88,69,75,9.22,SN,broken clouds,2022-06-13 16:47:09
659,Caravelas,-17.7125,-39.2481,72.37,83,100,12.48,BR,overcast clouds,2022-06-13 16:47:09
660,Mangan,27.5167,88.5333,75.76,93,98,0.27,IN,overcast clouds,2022-06-13 16:47:09
661,Comodoro Rivadavia,-45.8667,-67.5,60.66,41,0,14.97,AR,clear sky,2022-06-13 16:47:10
662,Virginia Beach,36.8529,-75.978,95.0,66,40,6.91,US,scattered clouds,2022-06-13 16:46:47
663,Umm Lajj,25.0213,37.2685,87.73,45,0,8.25,SA,clear sky,2022-06-13 16:47:10
664,Livenka,50.4491,38.2959,68.7,80,9,2.35,RU,clear sky,2022-06-13 16:47:10
665,Silver City,32.7701,-108.2803,89.56,23,0,13.0,US,clear sky,2022-06-13 16:47:11
666,Alegrete,-29.7831,-55.7919,58.95,56,0,5.97,BR,clear sky,2022-06-13 16:47:11
667,Imeni Poliny Osipenko,52.4201,136.4853,57.29,91,82,5.23,RU,broken clouds,2022-06-13 16:47:11
668,Kavaratti,10.5669,72.642,83.89,74,97,13.35,IN,overcast clouds,2022-06-13 16:47:12
669,Baruun-Urt,46.6806,113.2792,54.25,77,38,7.87,MN,scattered clouds,2022-06-13 16:47:12
670,Palafrugell,41.9174,3.1631,84.34,55,69,4.5,ES,broken clouds,2022-06-13 16:47:12
671,Wakkanai,45.4094,141.6739,49.86,90,11,7.31,JP,few clouds,2022-06-13 16:42:47
672,Bonfim,3.0833,-59.95,84.47,64,62,2.68,BR,broken clouds,2022-06-13 16:47:13
673,Riyadh,24.6877,46.7219,104.14,8,0,7.72,SA,clear sky,2022-06-13 16:46:52
674,Kudat,6.8837,116.8477,77.29,94,20,0.0,MY,few clouds,2022-06-13 16:48:13
675,Sheregesh,52.9209,87.9869,57.99,94,82,4.38,RU,light rain,2022-06-13 16:48:13
676,Port Hedland,-20.3167,118.5667,64.45,77,0,6.91,AU,clear sky,2022-06-13 16:48:13
677,Nouadhibou,20.931,-17.0347,73.38,68,0,25.32,MR,sand,2022-06-13 16:48:14
678,Riviere-Au-Renard,48.9957,-64.3971,59.29,74,99,15.32,CA,overcast clouds,2022-06-13 16:44:16
679,Rosetta,31.4044,30.4164,74.84,72,0,8.84,EG,clear sky,2022-06-13 16:48:14
680,Katherine,-14.4667,132.2667,59.32,41,8,8.05,AU,clear sky,2022-06-13 16:48:14
681,Guatire,10.4762,-66.5427,83.25,63,97,6.51,VE,overcast clouds,2022-06-13 16:48:15
682,Farrukhabad,27.4,79.5667,101.21,22,7,12.17,IN,clear sky,2022-06-13 16:48:15
683,Beidao,34.5686,105.8933,62.15,27,0,2.73,CN,clear sky,2022-06-13 16:48:15
684,Huarmey,-10.0681,-78.1522,67.95,71,72,8.03,PE,broken clouds,2022-06-13 16:48:16
685,Sao Joaquim,-28.2939,-49.9317,57.06,49,0,2.93,BR,clear sky,2022-06-13 16:46:52
